{"12JY":{"type":"balloonport","name":"Clinton Elks Lodge Balloonport","latitude_deg":"40.604587","longitude_deg":"-74.921538","elevation_ft":"37","continent":"NA","iso_country":"US"},"13M":{"type":"balloonport","name":"Aeronut Park Balloonport","latitude_deg":"42.60419845581055","longitude_deg":"-83.85859680175781","elevation_ft":"980","continent":"NA","iso_country":"US"},"28NC":{"type":"balloonport","name":"Balloonport of Greensboro Balloonport","latitude_deg":"35.9557991027832","longitude_deg":"-79.81890106201172","elevation_ft":"800","continent":"NA","iso_country":"US"},"2JY7":{"type":"balloonport","name":"Alba Vineyard Balloonport","latitude_deg":"40.615689","longitude_deg":"-75.164167","elevation_ft":"240","continent":"NA","iso_country":"US"},"35JY":{"type":"balloonport","name":"Cyber Density Balloon Spot Balloonport","latitude_deg":"40.43439865112305","longitude_deg":"-74.63469696044922","elevation_ft":"75","continent":"NA","iso_country":"US"},"4OH6":{"type":"balloonport","name":"Wingfoot Lake Airship Operations Balloonport","latitude_deg":"41.009498596191406","longitude_deg":"-81.35790252685547","elevation_ft":"1164","continent":"NA","iso_country":"US"},"59ID":{"type":"balloonport","name":"Palisades Field","latitude_deg":"43.184833","longitude_deg":"-111.049361","elevation_ft":"5624","continent":"NA","iso_country":"US"},"5KS0":{"type":"balloonport","name":"Anthony Balloonport","latitude_deg":"37.094501","longitude_deg":"-97.961403","elevation_ft":"1250","continent":"NA","iso_country":"US"},"64CL":{"type":"balloonport","name":"Goodyear Blimp Base Airport","latitude_deg":"33.855333","longitude_deg":"-118.276234","elevation_ft":"21","continent":"NA","iso_country":"US"},"CO28":{"type":"balloonport","name":"Suckla Farms Balloonport","latitude_deg":"40.05830001831055","longitude_deg":"-104.89199829101562","elevation_ft":"5050","continent":"NA","iso_country":"US"},"JY42":{"type":"balloonport","name":"Mabel's Balloonport","latitude_deg":"40.468299865722656","longitude_deg":"-75.0238037109375","elevation_ft":"460","continent":"NA","iso_country":"US"},"KADW":{"type":"large_airport","name":"Joint Base Andrews","latitude_deg":"38.810799","longitude_deg":"-76.866997","elevation_ft":"280","continent":"NA","iso_country":"US"},"KATL":{"type":"large_airport","name":"Hartsfield Jackson Atlanta International Airport","latitude_deg":"33.6367","longitude_deg":"-84.428101","elevation_ft":"1026","continent":"NA","iso_country":"US"},"KAUS":{"type":"large_airport","name":"Austin Bergstrom International Airport","latitude_deg":"30.197535","longitude_deg":"-97.662015","elevation_ft":"542","continent":"NA","iso_country":"US"},"KBNA":{"type":"large_airport","name":"Nashville International Airport","latitude_deg":"36.1245002746582","longitude_deg":"-86.6781997680664","elevation_ft":"599","continent":"NA","iso_country":"US"},"KBOS":{"type":"large_airport","name":"Logan International Airport","latitude_deg":"42.3643","longitude_deg":"-71.005203","elevation_ft":"20","continent":"NA","iso_country":"US"},"KBUF":{"type":"large_airport","name":"Buffalo Niagara International Airport","latitude_deg":"42.94049835","longitude_deg":"-78.73220062","elevation_ft":"728","continent":"NA","iso_country":"US"},"KBWI":{"type":"large_airport","name":"Baltimore\/Washington International Thurgood Marshall Airport","latitude_deg":"39.1754","longitude_deg":"-76.668297","elevation_ft":"146","continent":"NA","iso_country":"US"},"KCLE":{"type":"large_airport","name":"Cleveland Hopkins International Airport","latitude_deg":"41.4117012024","longitude_deg":"-81.8498001099","elevation_ft":"791","continent":"NA","iso_country":"US"},"KCLT":{"type":"large_airport","name":"Charlotte Douglas International Airport","latitude_deg":"35.2140007019043","longitude_deg":"-80.94309997558594","elevation_ft":"748","continent":"NA","iso_country":"US"},"KCMA":{"type":"large_airport","name":"Camarillo International Airport","latitude_deg":"34.213699","longitude_deg":"-119.094002","elevation_ft":"77","continent":"NA","iso_country":"US"},"KCMH":{"type":"large_airport","name":"John Glenn Columbus International Airport","latitude_deg":"39.998001","longitude_deg":"-82.891899","elevation_ft":"815","continent":"NA","iso_country":"US"},"KCVG":{"type":"large_airport","name":"Cincinnati Northern Kentucky International Airport","latitude_deg":"39.048801","longitude_deg":"-84.667801","elevation_ft":"896","continent":"NA","iso_country":"US"},"KDCA":{"type":"large_airport","name":"Ronald Reagan Washington National Airport","latitude_deg":"38.8521","longitude_deg":"-77.037697","elevation_ft":"15","continent":"NA","iso_country":"US"},"KDEN":{"type":"large_airport","name":"Denver International Airport","latitude_deg":"39.861698150635","longitude_deg":"-104.672996521","elevation_ft":"5431","continent":"NA","iso_country":"US"},"KDFW":{"type":"large_airport","name":"Dallas Fort Worth International Airport","latitude_deg":"32.896801","longitude_deg":"-97.038002","elevation_ft":"607","continent":"NA","iso_country":"US"},"KDTW":{"type":"large_airport","name":"Detroit Metropolitan Wayne County Airport","latitude_deg":"42.212398529052734","longitude_deg":"-83.35340118408203","elevation_ft":"645","continent":"NA","iso_country":"US"},"KEWR":{"type":"large_airport","name":"Newark Liberty International Airport","latitude_deg":"40.692501","longitude_deg":"-74.168701","elevation_ft":"18","continent":"NA","iso_country":"US"},"KFLL":{"type":"large_airport","name":"Fort Lauderdale Hollywood International Airport","latitude_deg":"26.072599","longitude_deg":"-80.152702","elevation_ft":"9","continent":"NA","iso_country":"US"},"KIAD":{"type":"large_airport","name":"Washington Dulles International Airport","latitude_deg":"38.9445","longitude_deg":"-77.455803","elevation_ft":"312","continent":"NA","iso_country":"US"},"KIAH":{"type":"large_airport","name":"George Bush Intercontinental Houston Airport","latitude_deg":"29.984399795532227","longitude_deg":"-95.34140014648438","elevation_ft":"97","continent":"NA","iso_country":"US"},"KIND":{"type":"large_airport","name":"Indianapolis International Airport","latitude_deg":"39.7173","longitude_deg":"-86.294403","elevation_ft":"797","continent":"NA","iso_country":"US"},"KJAX":{"type":"large_airport","name":"Jacksonville International Airport","latitude_deg":"30.49410057067871","longitude_deg":"-81.68789672851562","elevation_ft":"30","continent":"NA","iso_country":"US"},"KJFK":{"type":"large_airport","name":"John F Kennedy International Airport","latitude_deg":"40.639447","longitude_deg":"-73.779317","elevation_ft":"13","continent":"NA","iso_country":"US"},"KLAS":{"type":"large_airport","name":"Harry Reid International Airport","latitude_deg":"36.083361","longitude_deg":"-115.151817","elevation_ft":"2181","continent":"NA","iso_country":"US"},"KLAX":{"type":"large_airport","name":"Los Angeles International Airport","latitude_deg":"33.942501","longitude_deg":"-118.407997","elevation_ft":"125","continent":"NA","iso_country":"US"},"KLGA":{"type":"large_airport","name":"La Guardia Airport","latitude_deg":"40.777199","longitude_deg":"-73.872597","elevation_ft":"21","continent":"NA","iso_country":"US"},"KMCI":{"type":"large_airport","name":"Kansas City International Airport","latitude_deg":"39.2976","longitude_deg":"-94.713898","elevation_ft":"1026","continent":"NA","iso_country":"US"},"KMCO":{"type":"large_airport","name":"Orlando International Airport","latitude_deg":"28.429399490356445","longitude_deg":"-81.30899810791016","elevation_ft":"96","continent":"NA","iso_country":"US"},"KMDW":{"type":"large_airport","name":"Chicago Midway International Airport","latitude_deg":"41.785999","longitude_deg":"-87.752403","elevation_ft":"620","continent":"NA","iso_country":"US"},"KMEM":{"type":"large_airport","name":"Memphis International Airport","latitude_deg":"35.04240036010742","longitude_deg":"-89.97669982910156","elevation_ft":"341","continent":"NA","iso_country":"US"},"KMIA":{"type":"large_airport","name":"Miami International Airport","latitude_deg":"25.79319953918457","longitude_deg":"-80.29060363769531","elevation_ft":"8","continent":"NA","iso_country":"US"},"KMKE":{"type":"large_airport","name":"General Mitchell International Airport","latitude_deg":"42.947200775146484","longitude_deg":"-87.89659881591797","elevation_ft":"723","continent":"NA","iso_country":"US"},"KMSP":{"type":"large_airport","name":"Minneapolis\u2013Saint Paul International Airport \/ Wold\u2013Chamberlain Field","latitude_deg":"44.882","longitude_deg":"-93.221802","elevation_ft":"841","continent":"NA","iso_country":"US"},"KMSY":{"type":"large_airport","name":"Louis Armstrong New Orleans International Airport","latitude_deg":"29.99340057373047","longitude_deg":"-90.25800323486328","elevation_ft":"4","continent":"NA","iso_country":"US"},"KOAK":{"type":"large_airport","name":"Metropolitan Oakland International Airport","latitude_deg":"37.721298","longitude_deg":"-122.221001","elevation_ft":"9","continent":"NA","iso_country":"US"},"KONT":{"type":"large_airport","name":"Ontario International Airport","latitude_deg":"34.055999755859375","longitude_deg":"-117.60099792480469","elevation_ft":"944","continent":"NA","iso_country":"US"},"KORD":{"type":"large_airport","name":"Chicago O'Hare International Airport","latitude_deg":"41.9786","longitude_deg":"-87.9048","elevation_ft":"672","continent":"NA","iso_country":"US"},"KPBI":{"type":"large_airport","name":"Palm Beach International Airport","latitude_deg":"26.68320083618164","longitude_deg":"-80.09559631347656","elevation_ft":"19","continent":"NA","iso_country":"US"},"KPDX":{"type":"large_airport","name":"Portland International Airport","latitude_deg":"45.58869934","longitude_deg":"-122.5979996","elevation_ft":"31","continent":"NA","iso_country":"US"},"KPHL":{"type":"large_airport","name":"Philadelphia International Airport","latitude_deg":"39.87189865112305","longitude_deg":"-75.24109649658203","elevation_ft":"36","continent":"NA","iso_country":"US"},"KPHX":{"type":"large_airport","name":"Phoenix Sky Harbor International Airport","latitude_deg":"33.435302","longitude_deg":"-112.005905","elevation_ft":"1135","continent":"NA","iso_country":"US"},"KPIT":{"type":"large_airport","name":"Pittsburgh International Airport","latitude_deg":"40.49150085","longitude_deg":"-80.23290253","elevation_ft":"1203","continent":"NA","iso_country":"US"},"KPVD":{"type":"large_airport","name":"Theodore Francis Green State Airport","latitude_deg":"41.725038","longitude_deg":"-71.425668","elevation_ft":"55","continent":"NA","iso_country":"US"},"KPWM":{"type":"large_airport","name":"Portland International Jetport","latitude_deg":"43.646198","longitude_deg":"-70.309303","elevation_ft":"76","continent":"NA","iso_country":"US"},"KRDU":{"type":"large_airport","name":"Raleigh Durham International Airport","latitude_deg":"35.877601623535156","longitude_deg":"-78.7874984741211","elevation_ft":"435","continent":"NA","iso_country":"US"},"KRIC":{"type":"large_airport","name":"Richmond International Airport","latitude_deg":"37.50519943237305","longitude_deg":"-77.3197021484375","elevation_ft":"167","continent":"NA","iso_country":"US"},"KRNO":{"type":"large_airport","name":"Reno Tahoe International Airport","latitude_deg":"39.49909973144531","longitude_deg":"-119.76799774169922","elevation_ft":"4415","continent":"NA","iso_country":"US"},"KRSW":{"type":"large_airport","name":"Southwest Florida International Airport","latitude_deg":"26.53619956970215","longitude_deg":"-81.75520324707031","elevation_ft":"30","continent":"NA","iso_country":"US"},"KSAN":{"type":"large_airport","name":"San Diego International Airport","latitude_deg":"32.7336006165","longitude_deg":"-117.190002441","elevation_ft":"17","continent":"NA","iso_country":"US"},"KSAT":{"type":"large_airport","name":"San Antonio International Airport","latitude_deg":"29.533701","longitude_deg":"-98.469803","elevation_ft":"809","continent":"NA","iso_country":"US"},"KSAV":{"type":"large_airport","name":"Savannah Hilton Head International Airport","latitude_deg":"32.12760162","longitude_deg":"-81.20210266","elevation_ft":"50","continent":"NA","iso_country":"US"},"KSDF":{"type":"large_airport","name":"Louisville Muhammad Ali International Airport","latitude_deg":"38.1744","longitude_deg":"-85.736","elevation_ft":"501","continent":"NA","iso_country":"US"},"KSEA":{"type":"large_airport","name":"Seattle\u2013Tacoma International Airport","latitude_deg":"47.449162","longitude_deg":"-122.311134","elevation_ft":"433","continent":"NA","iso_country":"US"},"KSFB":{"type":"large_airport","name":"Orlando Sanford International Airport","latitude_deg":"28.777599334716797","longitude_deg":"-81.23750305175781","elevation_ft":"55","continent":"NA","iso_country":"US"},"KSFO":{"type":"large_airport","name":"San Francisco International Airport","latitude_deg":"37.61899948120117","longitude_deg":"-122.375","elevation_ft":"13","continent":"NA","iso_country":"US"},"KSJC":{"type":"large_airport","name":"Norman Y. Mineta San Jose International Airport","latitude_deg":"37.362452","longitude_deg":"-121.929188","elevation_ft":"62","continent":"NA","iso_country":"US"},"KSLC":{"type":"large_airport","name":"Salt Lake City International Airport","latitude_deg":"40.785749","longitude_deg":"-111.979746","elevation_ft":"4227","continent":"NA","iso_country":"US"},"KSMF":{"type":"large_airport","name":"Sacramento International Airport","latitude_deg":"38.69540023803711","longitude_deg":"-121.59100341796875","elevation_ft":"27","continent":"NA","iso_country":"US"},"KSNA":{"type":"large_airport","name":"John Wayne Airport-Orange County Airport","latitude_deg":"33.675701","longitude_deg":"-117.867996","elevation_ft":"56","continent":"NA","iso_country":"US"},"KSTL":{"type":"large_airport","name":"St Louis Lambert International Airport","latitude_deg":"38.748697","longitude_deg":"-90.370003","elevation_ft":"618","continent":"NA","iso_country":"US"},"KSYR":{"type":"large_airport","name":"Syracuse Hancock International Airport","latitude_deg":"43.11119842529297","longitude_deg":"-76.1063003540039","elevation_ft":"421","continent":"NA","iso_country":"US"},"KTPA":{"type":"large_airport","name":"Tampa International Airport","latitude_deg":"27.975500106811523","longitude_deg":"-82.533203125","elevation_ft":"26","continent":"NA","iso_country":"US"},"KTUL":{"type":"large_airport","name":"Tulsa International Airport","latitude_deg":"36.19839859008789","longitude_deg":"-95.88809967041016","elevation_ft":"677","continent":"NA","iso_country":"US"},"MA26":{"type":"balloonport","name":"Balloon Port At Dingley Dell Balloonport","latitude_deg":"42.120399475097656","longitude_deg":"-72.2562026977539","elevation_ft":"465","continent":"NA","iso_country":"US"},"NJ34":{"type":"balloonport","name":"P & A Deptford Heliport","latitude_deg":"39.844601","longitude_deg":"-75.091301","elevation_ft":"30","continent":"NA","iso_country":"US"},"NY80":{"type":"balloonport","name":"Aurora Balloonport","latitude_deg":"42.696389","longitude_deg":"-78.569167","elevation_ft":"900","continent":"NA","iso_country":"US"},"PAFA":{"type":"large_airport","name":"Fairbanks International Airport","latitude_deg":"64.81510162","longitude_deg":"-147.8560028","elevation_ft":"439","continent":"NA","iso_country":"US"},"PANC":{"type":"large_airport","name":"Ted Stevens Anchorage International Airport","latitude_deg":"61.1744","longitude_deg":"-149.996002","elevation_ft":"152","continent":"NA","iso_country":"US"},"RI16":{"type":"balloonport","name":"Keskinen Balloonport","latitude_deg":"41.71991","longitude_deg":"-71.631603","elevation_ft":"255","continent":"NA","iso_country":"US"},"US-0934":{"type":"balloonport","name":"Murphy's Landing Balloonport","latitude_deg":"41.666664","longitude_deg":"-73.1894444","elevation_ft":"1050","continent":"NA","iso_country":"US"},"US-2455":{"type":"balloonport","name":"Eagle Pass TARS Site","latitude_deg":"28.38537","longitude_deg":"-100.28594","elevation_ft":"709","continent":"NA","iso_country":"US"},"US-2456":{"type":"balloonport","name":"Fort Huachuca TARS Site","latitude_deg":"31.48581","longitude_deg":"-110.29571","elevation_ft":"4872","continent":"NA","iso_country":"US"},"US-2457":{"type":"balloonport","name":"Cudjoe Key South TARS Site","latitude_deg":"24.69609","longitude_deg":"-81.50449","elevation_ft":"4","continent":"NA","iso_country":"US"},"US-2459":{"type":"balloonport","name":"Cudjoe Key North TARS Site","latitude_deg":"24.70094","longitude_deg":"-81.5061","elevation_ft":"4","continent":"NA","iso_country":"US"},"US-2460":{"type":"balloonport","name":"Rio Grande City TARS Site","latitude_deg":"26.5723","longitude_deg":"-98.81714","elevation_ft":"330","continent":"NA","iso_country":"US"},"US-2461":{"type":"balloonport","name":"Deming TARS Site","latitude_deg":"32.02655","longitude_deg":"-107.86418","elevation_ft":"4216","continent":"NA","iso_country":"US"},"US-2464":{"type":"balloonport","name":"Yuma TARS Site","latitude_deg":"33.01587","longitude_deg":"-114.24328","elevation_ft":"991","continent":"NA","iso_country":"US"},"US-2465":{"type":"balloonport","name":"Marfa TARS Site","latitude_deg":"30.4344","longitude_deg":"-104.32061","elevation_ft":"4701","continent":"NA","iso_country":"US"},"US-2641":{"type":"balloonport","name":"Characters in Flight Balloonport","latitude_deg":"28.37096","longitude_deg":"-81.51947","elevation_ft":"","continent":"NA","iso_country":"US"},"US-3629":{"type":"balloonport","name":"Balloon Fiesta Park","latitude_deg":"35.19652","longitude_deg":"-106.59717","elevation_ft":"5075","continent":"NA","iso_country":"US"},"US-6494":{"type":"balloonport","name":"Metamora Balloonport","latitude_deg":"42.9461","longitude_deg":"-83.29176","elevation_ft":"1048","continent":"NA","iso_country":"US"},"US-6877":{"type":"balloonport","name":"Barrys Folly Nr 12 Balloonport","latitude_deg":"40.113056","longitude_deg":"-75.6925","elevation_ft":"637","continent":"NA","iso_country":"US"},"US-7111":{"type":"balloonport","name":"Great Park Balloon Ride","latitude_deg":"33.6726","longitude_deg":"-117.7431","elevation_ft":"270","continent":"NA","iso_country":"US"},"VA60":{"type":"balloonport","name":"Flying Horse Farm Balloonport","latitude_deg":"39.051498","longitude_deg":"-77.777496","elevation_ft":"450","continent":"NA","iso_country":"US"}}